[
  { "id": 1, "name": "Auto Mercado", "category": "Groceries", "location": { "province": "San José", "city": "Escazú" }, "product_types": ["groceries", "fresh produce", "bakery", "imported goods", "wine", "liquor", "sushi", "organic food", "gluten-free products"], "hours": "7:00 AM - 10:00 PM", "contact": "2289-9990" },
  { "id": 2, "name": "Gollo", "category": "Electronics & Appliances", "location": { "province": "Alajuela", "city": "Alajuela Centro" }, "product_types": ["televisions", "smartphones", "cellphones", "laptops", "refrigerators", "washing machines", "furniture", "motorcycles", "gaming consoles", "blenders"], "hours": "9:00 AM - 7:00 PM", "contact": "800-00-GOLLO" },
  { "id": 3, "name": "EPA", "category": "Hardware", "location": { "province": "Heredia", "city": "Heredia" }, "product_types": ["tools", "paint", "plumbing", "electrical", "gardening supplies", "lumber", "lightbulbs", "screws", "flooring", "fans"], "hours": "7:30 AM - 9:00 PM", "contact": "800-EPAVALE" },
  { "id": 4, "name": "Universal", "category": "Department Store", "location": { "province": "San José", "city": "Zapote" }, "product_types": ["toys", "books", "stationery", "home goods", "clothing", "electronics", "seasonal decorations", "Lego", "art supplies", "candles"], "hours": "10:00 AM - 8:00 PM", "contact": "2257-8000" },
  { "id": 5, "name": "Cemaco", "category": "Home Goods", "location": { "province": "Guanacaste", "city": "Liberia" }, "product_types": ["kitchenware", "bedding", "bath", "furniture", "home decor", "small appliances", "patio furniture", "towels", "storage solutions"], "hours": "10:00 AM - 8:00 PM", "contact": "2588-1400" },
  { "id": 6, "name": "Farmacia Fischel", "category": "Pharmacy", "location": { "province": "Cartago", "city": "Cartago Centro" }, "product_types": ["prescription medicine", "over-the-counter drugs", "vitamins", "personal care", "baby products", "skincare", "painkillers", "allergy medicine"], "hours": "8:00 AM - 9:00 PM", "contact": "800-FISCHEL" },
  { "id": 7, "name": "Librería Internacional", "category": "Bookstore", "location": { "province": "San José", "city": "Multiplaza Escazú" }, "product_types": ["books", "novels", "magazines", "stationery", "gifts", "board games", "puzzles", "manga", "agendas"], "hours": "10:00 AM - 9:00 PM", "contact": "2201-6300" },
  { "id": 8, "name": "Walmart", "category": "Groceries", "location": { "province": "Alajuela", "city": "San Ramón" }, "product_types": ["groceries", "electronics", "clothing", "home goods", "pharmacy", "bakery", "tires", "toys", "cleaning supplies"], "hours": "8:00 AM - 10:00 PM", "contact": "800-8000-722" },
  { "id": 9, "name": "Monge", "category": "Electronics & Appliances", "location": { "province": "Puntarenas", "city": "Puntarenas Centro" }, "product_types": ["smartphones", "cellphones", "laptops", "appliances", "furniture", "gaming consoles", "TVs", "credit services"], "hours": "9:00 AM - 6:30 PM", "contact": "2222-2000" },
  { "id": 10, "name": "El Rey", "category": "Hardware", "location": { "province": "Limón", "city": "Limón Centro" }, "product_types": ["hardware", "paint", "construction materials", "gardening", "plumbing", "tools", "electrical supplies"], "hours": "7:00 AM - 6:00 PM", "contact": "2798-1234" },
  { "id": 11, "name": "Siman", "category": "Department Store", "location": { "province": "San José", "city": "Multiplaza Curridabat" }, "product_types": ["clothing", "cosmetics", "home goods", "electronics", "shoes", "perfume", "fashion", "jewelry", "handbags"], "hours": "10:00 AM - 9:00 PM", "contact": "800-800-3000" },
  { "id": 12, "name": "Masxmenos", "category": "Groceries", "location": { "province": "Heredia", "city": "Santo Domingo" }, "product_types": ["groceries", "fresh produce", "meat", "bakery", "household items", "liquor"], "hours": "7:00 AM - 10:00 PM", "contact": "800-8000-722" },
  { "id": 13, "name": "Play", "category": "Electronics & Appliances", "location": { "province": "San José", "city": "San Pedro" }, "product_types": ["video games", "PlayStation", "Nintendo Switch", "Xbox", "gaming consoles", "laptops", "smartphones", "drones", "accessories"], "hours": "10:00 AM - 7:00 PM", "contact": "2283-5050" },
  { "id": 14, "name": "Pequeño Mundo", "category": "Discount Store", "location": { "province": "Guanacaste", "city": "Nicoya" }, "product_types": ["clothing", "home goods", "toys", "kitchenware", "seasonal items", "crafts", "bedding"], "hours": "9:00 AM - 8:00 PM", "contact": "2685-5021" },
  { "id": 15, "name": "Farmacia La Bomba", "category": "Pharmacy", "location": { "province": "Puntarenas", "city": "Jacó" }, "product_types": ["medicine", "personal care", "sunscreen", "first aid", "vitamins", "24/7 service"], "hours": "24 hours", "contact": "2643-3131" },
  { "id": 16, "name": "Super Compro", "category": "Groceries", "location": { "province": "Limón", "city": "Puerto Viejo" }, "product_types": ["groceries", "local produce", "beer", "wine", "beach supplies", "snacks"], "hours": "7:00 AM - 9:00 PM", "contact": "2750-0101" },
  { "id": 17, "name": "El Lagar", "category": "Hardware", "location": { "province": "Alajuela", "city": "La Fortuna" }, "product_types": ["hardware", "building materials", "paint", "agricultural supplies", "tools", "lumber"], "hours": "7:00 AM - 6:00 PM", "contact": "2479-9292" },
  { "id": 18, "name": "Tiendas Ekono", "category": "Clothing", "location": { "province": "Cartago", "city": "Paraíso" }, "product_types": ["men's clothing", "women's clothing", "children's clothing", "shoes", "accessories", "underwear"], "hours": "9:30 AM - 7:30 PM", "contact": "4000-1234" },
  { "id": 19, "name": "iShop", "category": "Electronics & Appliances", "location": { "province": "San José", "city": "Lincoln Plaza" }, "product_types": ["iphone", "macbook", "ipad", "apple watch", "airpods", "apple accessories", "cases", "chargers"], "hours": "10:00 AM - 9:00 PM", "contact": "4040-0040" },
  { "id": 20, "name": "Vindi", "category": "Convenience Store", "location": { "province": "Heredia", "city": "Barva" }, "product_types": ["convenience groceries", "snacks", "drinks", "fresh coffee", "sandwiches", "craft beer"], "hours": "6:00 AM - 11:00 PM", "contact": "4035-8500" },
  { "id": 21, "name": "Office Depot", "category": "Office Supplies", "location": { "province": "San José", "city": "Curridabat" }, "product_types": ["paper", "printers", "ink", "toner", "desks", "chairs", "laptops", "stationery", "shredders"], "hours": "9:00 AM - 8:00 PM", "contact": "4035-7500" },
  { "id": 22, "name": "Radio Shack", "category": "Electronics & Appliances", "location": { "province": "Cartago", "city": "Paseo Metrópoli" }, "product_types": ["cables", "adapters", "headphones", "speakers", "batteries", "drones", "phone accessories", "soldering irons"], "hours": "10:00 AM - 9:00 PM", "contact": "2573-0010" },
  { "id": 23, "name": "MegaSuper", "category": "Groceries", "location": { "province": "Puntarenas", "city": "Quepos" }, "product_types": ["groceries", "produce", "meat", "bakery", "liquor", "household cleaning"], "hours": "7:00 AM - 10:00 PM", "contact": "800-555-6342" },
  { "id": 24, "name": "Koaj", "category": "Clothing", "location": { "province": "Alajuela", "city": "City Mall" }, "product_types": ["jeans", "t-shirts", "jackets", "dresses", "urban fashion", "sweaters"], "hours": "10:00 AM - 9:00 PM", "contact": "4700-5010" },
  { "id": 25, "name": "Super Salón", "category": "Beauty Supplies", "location": { "province": "San José", "city": "Avenida Central" }, "product_types": ["shampoo", "hair dye", "nail polish", "makeup", "styling tools", "cosmetics", "hair gel", "waxes"], "hours": "8:30 AM - 7:00 PM", "contact": "2258-5858" },
  { "id": 26, "name": "M Express", "category": "Convenience Store", "location": { "province": "Guanacaste", "city": "Tamarindo" }, "product_types": ["snacks", "drinks", "ice cream", "sunscreen", "sandwiches", "beer", "phone chargers"], "hours": "6:00 AM - 12:00 AM", "contact": "N/A" },
  { "id": 27, "name": "Lehmann Editores", "category": "Bookstore", "location": { "province": "San José", "city": "Avenida Central" }, "product_types": ["books", "school supplies", "office supplies", "art supplies", "textbooks"], "hours": "8:30 AM - 6:30 PM", "contact": "2522-4848" },
  { "id": 28, "name": "El Verdugo", "category": "Electronics & Appliances", "location": { "province": "Limón", "city": "Siquirres" }, "product_types": ["appliances", "electronics", "furniture", "motorcycles", "stoves", "beds"], "hours": "8:00 AM - 6:00 PM", "contact": "2222-2000" },
  { "id": 29, "name": "Pali", "category": "Groceries", "location": { "province": "Guanacaste", "city": "Santa Cruz" }, "product_types": ["basic groceries", "produce", "canned goods", "household cleaning", "snacks"], "hours": "7:30 AM - 9:00 PM", "contact": "800-8000-722" },
  { "id": 30, "name": "La Artística", "category": "Home Goods", "location": { "province": "Heredia", "city": "Real Cariari" }, "product_types": ["furniture", "mattresses", "home decor", "lighting", "rugs", "sofas"], "hours": "10:00 AM - 8:00 PM", "contact": "2239-3333" },
  { "id": 31, "name": "Pops", "category": "Food & Restaurant", "location": { "province": "Cartago", "city": "Tres Ríos" }, "product_types": ["ice cream", "milkshakes", "sundaes", "frozen yogurt", "ice cream cakes"], "hours": "11:00 AM - 10:00 PM", "contact": "2234-7677" },
  { "id": 32, "name": "Centro de Carnes San Martín", "category": "Butcher Shop", "location": { "province": "Alajuela", "city": "Grecia" }, "product_types": ["beef", "pork", "chicken", "sausages", "specialty cuts", "ribs", "steak"], "hours": "7:00 AM - 7:00 PM", "contact": "2494-1111" },
  { "id": 33, "name": "PriceSmart", "category": "Wholesale Club", "location": { "province": "Heredia", "city": "Santa Ana" }, "product_types": ["bulk groceries", "electronics", "tires", "bakery", "appliances", "office supplies", "pizza", "rotisserie chicken"], "hours": "10:00 AM - 8:30 PM", "contact": "4035-2900" },
  { "id": 34, "name": "SINART", "category": "Cultural Goods", "location": { "province": "San José", "city": "Barrio Amón" }, "product_types": ["costa rican music", "books by local authors", "documentaries", "cultural items", "local art"], "hours": "9:00 AM - 5:00 PM", "contact": "2233-4050" },
  { "id": 35, "name": "Musmanni", "category": "Bakery", "location": { "province": "Puntarenas", "city": "Ciudad Neily" }, "product_types": ["bread", "pastries", "cakes", "coffee", "sandwiches", "empanadas"], "hours": "6:00 AM - 8:00 PM", "contact": "800-MUSMANNI" },
  { "id": 36, "name": "Ferretería El Mar", "category": "Hardware", "location": { "province": "Puntarenas", "city": "Golfito" }, "product_types": ["fishing gear", "marine supplies", "tools", "paint", "hardware", "ropes", "anchors"], "hours": "7:00 AM - 5:00 PM", "contact": "2775-0101" },
  { "id": 37, "name": "Saúl E. Méndez", "category": "Clothing", "location": { "province": "San José", "city": "Escazú" }, "product_types": ["men's suits", "formal wear", "shirts", "ties", "shoes", "women's fashion", "blazers"], "hours": "9:30 AM - 7:00 PM", "contact": "2222-1111" },
  { "id": 38, "name": "CRATE & Barrel", "category": "Home Goods", "location": { "province": "San José", "city": "Avenida Escazú" }, "product_types": ["modern furniture", "kitchenware", "home decor", "tableware", "gifts", "glassware"], "hours": "11:00 AM - 8:00 PM", "contact": "2519-9222" },
  { "id": 39, "name": "Suplen", "category": "Pet Supplies", "location": { "province": "Alajuela", "city": "La Guácima" }, "product_types": ["dog food", "cat food", "pet toys", "leashes", "pet medicine", "pet beds", "bird seed"], "hours": "8:00 AM - 6:00 PM", "contact": "2438-1818" },
  { "id": 40, "name": "Ciclo Güilly", "category": "Sporting Goods", "location": { "province": "Cartago", "city": "La Unión" }, "product_types": ["bicycles", "bike parts", "helmets", "cycling apparel", "bike repair", "mountain bikes", "road bikes"], "hours": "9:00 AM - 6:00 PM", "contact": "2278-4343" },
  { "id": 41, "name": "Kölbi", "category": "Mobile Phone Carrier", "location": { "province": "San José", "city": "Avenida Segunda" }, "product_types": ["smartphones", "cellphones", "prepaid plans", "postpaid plans", "SIM cards", "phone cases", "mobile internet"], "hours": "8:00 AM - 5:00 PM", "contact": "1193" },
  { "id": 42, "name": "Payless ShoeSource", "category": "Shoe Store", "location": { "province": "Alajuela", "city": "City Mall" }, "product_types": ["men's shoes", "women's shoes", "kids' shoes", "sandals", "sneakers", "formal shoes", "boots"], "hours": "10:00 AM - 9:00 PM", "contact": "4000-1170" },
  { "id": 43, "name": "Super Baterías", "category": "Automotive Parts", "location": { "province": "Heredia", "city": "San Francisco" }, "product_types": ["car batteries", "motorcycle batteries", "battery installation", "truck batteries"], "hours": "7:30 AM - 5:30 PM", "contact": "2261-5151" },
  { "id": 44, "name": "Extremos", "category": "Sporting Goods", "location": { "province": "San José", "city": "Multiplaza Curridabat" }, "product_types": ["running shoes", "athletic apparel", "gym clothes", "hiking boots", "backpacks", "sports watches"], "hours": "10:00 AM - 9:00 PM", "contact": "2280-1515" },
  { "id": 45, "name": "Juguetería TOYS", "category": "Toy Store", "location": { "province": "Cartago", "city": "Paseo Metrópoli" }, "product_types": ["Lego", "Barbie", "action figures", "board games", "puzzles", "dolls", "Hot Wheels", "educational toys"], "hours": "10:00 AM - 9:00 PM", "contact": "4031-5700" },
  { "id": 46, "name": "Britt Café & Bakery", "category": "Coffee Shop", "location": { "province": "Alajuela", "city": "Juan Santamaría Airport" }, "product_types": ["gourmet coffee", "coffee beans", "souvenirs", "chocolates", "baked goods", "sandwiches", "liquors"], "hours": "5:00 AM - 8:00 PM", "contact": "2277-1600" },
  { "id": 47, "name": "Pet's Market", "category": "Pet Supplies", "location": { "province": "San José", "city": "Santa Ana" }, "product_types": ["premium dog food", "cat food", "pet grooming", "veterinary services", "pet toys", "leashes", "aquariums", "fish food"], "hours": "9:00 AM - 7:00 PM", "contact": "2282-4444" },
  { "id": 48, "name": "Instrumentos Musicales La Voz", "category": "Music Store", "location": { "province": "San José", "city": "San José Centro" }, "product_types": ["guitars", "keyboards", "pianos", "drums", "microphones", "audio equipment", "sheet music", "amps"], "hours": "9:00 AM - 6:00 PM", "contact": "2257-7315" },
  { "id": 49, "name": "Art Depot", "category": "Art Supplies", "location": { "province": "San José", "city": "San Pedro" }, "product_types": ["paints", "canvases", "brushes", "drawing pencils", "charcoal", "sculpting clay", "easels", "craft supplies"], "hours": "9:30 AM - 6:30 PM", "contact": "2224-2222" },
  { "id": 50, "name": "Liberty", "category": "Mobile Phone Carrier", "location": { "province": "Heredia", "city": "Paseo de las Flores" }, "product_types": ["cellphones", "smartphones", "cable TV", "internet plans", "phone plans", "SIM cards"], "hours": "10:00 AM - 9:00 PM", "contact": "1693" },
  { "id": 51, "name": "Gigante del Repuesto", "category": "Automotive Parts", "location": { "province": "San José", "city": "La Uruca" }, "product_types": ["car parts", "spark plugs", "oil filters", "brake pads", "coolant", "car suspension", "engine parts"], "hours": "7:30 AM - 6:00 PM", "contact": "2290-7000" },
  { "id": 52, "name": "McDonald's", "category": "Food & Restaurant", "location": { "province": "Guanacaste", "city": "Liberia" }, "product_types": ["hamburgers", "french fries", "soda", "milkshakes", "breakfast", "McNuggets", "ice cream"], "hours": "6:00 AM - 12:00 AM", "contact": "N/A" },
  { "id": 53, "name": "PLG (Puro Loco)", "category": "Sporting Goods", "location": { "province": "Puntarenas", "city": "Jacó" }, "product_types": ["surfboards", "skateboards", "sandals", "t-shirts", "boardshorts", "sunglasses", "wetsuits"], "hours": "9:00 AM - 8:00 PM", "contact": "2643-1234" },
  { "id": 54, "name": "Ashley HomeStore", "category": "Home Goods", "location": { "province": "San José", "city": "Santa Ana" }, "product_types": ["sofas", "beds", "mattresses", "dining tables", "recliners", "outdoor furniture", "home decor"], "hours": "10:00 AM - 7:00 PM", "contact": "4000-1551" },
  { "id": 55, "name": "Green Center", "category": "Health & Organic Store", "location": { "province": "San José", "city": "Curridabat" }, "product_types": ["organic vegetables", "gluten-free products", "vitamins", "supplements", "vegan food", "kombucha", "protein powder"], "hours": "8:00 AM - 8:00 PM", "contact": "4080-3333" },
  { "id": 56, "name": "Altea Design", "category": "Home Goods", "location": { "province": "San José", "city": "Escazú" }, "product_types": ["designer furniture", "modern decor", "lighting", "rugs", "art pieces", "vases"], "hours": "10:00 AM - 7:00 PM", "contact": "2289-4949" },
  { "id": 57, "name": "AMPM", "category": "Convenience Store", "location": { "province": "Limón", "city": "Limón Centro" }, "product_types": ["snacks", "hot dogs", "coffee", "soda", "beer", "sandwiches", "icee"], "hours": "24 hours", "contact": "N/A" },
  { "id": 58, "name": "PC Central", "category": "PC & Computer Store", "location": { "province": "San José", "city": "Zapote" }, "product_types": ["motherboards", "CPUs", "GPUs", "RAM", "SSDs", "PC cases", "monitors", "gaming chairs", "PC repair"], "hours": "9:00 AM - 6:00 PM", "contact": "2280-9191" },
  { "id": 59, "name": "Spoon", "category": "Food & Restaurant", "location": { "province": "Heredia", "city": "Heredia Centro" }, "product_types": ["cakes", "desserts", "coffee", "breakfast", "lunch menu", "pastries", "salads"], "hours": "7:00 AM - 8:00 PM", "contact": "2253-9333" },
  { "id": 60, "name": "Méndez & Co.", "category": "Clothing", "location": { "province": "Cartago", "city": "Paseo Metrópoli" }, "product_types": ["jeans", "casual wear", "t-shirts", "shoes", "accessories", "youth fashion"], "hours": "10:00 AM - 9:00 PM", "contact": "2573-0020" },
  { "id": 61, "name": "Ópticas Visión", "category": "Eyewear & Optician", "location": { "province": "Puntarenas", "city": "Puntarenas Centro" }, "product_types": ["eyeglasses", "sunglasses", "contact lenses", "eye exams", "prescription lenses", "designer frames"], "hours": "8:00 AM - 6:00 PM", "contact": "2661-2222" },
  { "id": 62, "name": "Super Llantas", "category": "Automotive Parts", "location": { "province": "Alajuela", "city": "San Joaquín de Flores" }, "product_types": ["tires", "wheel alignment", "balancing", "rims", "automotive repair"], "hours": "7:30 AM - 5:30 PM", "contact": "2265-6565" },
  { "id": 63, "name": "La Casa de las Baterías", "category": "Electronics & Appliances", "location": { "province": "San José", "city": "Paseo Colón" }, "product_types": ["batteries", "car batteries", "phone batteries", "chargers", "solar panels", "inverters"], "hours": "7:30 AM - 6:00 PM", "contact": "2257-3131" },
  { "id": 64, "name": "Adidas", "category": "Sporting Goods", "location": { "province": "San José", "city": "Multiplaza Escazú" }, "product_types": ["sneakers", "running shoes", "jerseys", "athletic apparel", "soccer cleats", "tracksuits"], "hours": "10:00 AM - 9:00 PM", "contact": "2201-5121" },
  { "id": 65, "name": "Claro", "category": "Mobile Phone Carrier", "location": { "province": "Guanacaste", "city": "Liberia" }, "product_types": ["smartphones", "cellphones", "phone plans", "home internet", "SIM cards"], "hours": "9:00 AM - 6:00 PM", "contact": "*800" },
  { "id": 66, "name": "BAC Credomatic", "category": "Bank / Financial Services", "location": { "province": "San José", "city": "San José Centro" }, "product_types": ["credit cards", "debit cards", "loans", "ATM", "bank account", "mortgages", "online banking"], "hours": "9:00 AM - 4:00 PM", "contact": "2295-9797" },
  { "id": 67, "name": "Cinépolis", "category": "Movie Theater", "location": { "province": "Heredia", "city": "Paseo de las Flores" }, "product_types": ["movie tickets", "films", "popcorn", "soda", "candy", "IMAX", "3D movies", "VIP cinema"], "hours": "1:00 PM - 11:00 PM", "contact": "2235-5000" },
  { "id": 68, "name": "Gold's Gym", "category": "Gym & Fitness", "location": { "province": "San José", "city": "Guachipelín" }, "product_types": ["gym membership", "personal training", "group classes", "weights", "cardio machines", "yoga", "spinning"], "hours": "5:00 AM - 10:00 PM", "contact": "2215-3936" },
  { "id": 69, "name": "La Tijera", "category": "Fabric Store", "location": { "province": "San José", "city": "San José Centro" }, "product_types": ["fabric", "thread", "buttons", "zippers", "sewing patterns", "ribbons", "craft supplies"], "hours": "8:00 AM - 6:00 PM", "contact": "2257-8182" },
  { "id": 70, "name": "Vinolento", "category": "Liquor Store", "location": { "province": "San José", "city": "Curridabat" }, "product_types": ["wine", "craft beer", "imported liquor", "whiskey", "rum", "gin", "vodka", "mixers"], "hours": "11:00 AM - 9:00 PM", "contact": "4034-7033" },
  { "id": 71, "name": "Zara", "category": "Clothing", "location": { "province": "San José", "city": "Multiplaza Escazú" }, "product_types": ["women's clothing", "men's clothing", "dresses", "blazers", "jeans", "shoes", "handbags"], "hours": "10:00 AM - 9:00 PM", "contact": "2201-5077" },
  { "id": 72, "name": "Cinemark", "category": "Movie Theater", "location": { "province": "Alajuela", "city": "City Mall" }, "product_types": ["movie tickets", "popcorn", "soda", "candy", "3D movies", "XD experience"], "hours": "12:00 PM - 10:30 PM", "contact": "2437-7777" },
  { "id": 73, "name": "Intelect", "category": "PC & Computer Store", "location": { "province": "San José", "city": "San Pedro" }, "product_types": ["laptops", "desktop computers", "PC components", "monitors", "printers", "computer repair", "networking"], "hours": "9:00 AM - 7:00 PM", "contact": "2524-1540" },
  { "id": 74, "name": "Correos de Costa Rica", "category": "Postal Service", "location": { "province": "Cartago", "city": "Cartago Centro" }, "product_types": ["mail", "stamps", "package shipping", "PO boxes", "money orders", "Box Correos"], "hours": "8:00 AM - 5:00 PM", "contact": "800-900-2000" },
  { "id": 75, "name": "KFC", "category": "Food & Restaurant", "location": { "province": "Limón", "city": "Limón Centro" }, "product_types": ["fried chicken", "hamburgers", "french fries", "mashed potatoes", "biscuits", "soda"], "hours": "11:00 AM - 10:00 PM", "contact": "N/A" },
  { "id": 76, "name": "Vivero Central", "category": "Garden Center", "location": { "province": "Alajuela", "city": "Alajuela" }, "product_types": ["plants", "flowers", "trees", "soil", "fertilizer", "pots", "gardening tools", "landscaping advice"], "hours": "7:30 AM - 5:30 PM", "contact": "2441-1198" },
  { "id": 77, "name": "Leonisa", "category": "Clothing", "location": { "province": "San José", "city": "Lincoln Plaza" }, "product_types": ["lingerie", "bras", "underwear", "swimwear", "shapewear", "women's clothing"], "hours": "10:00 AM - 9:00 PM", "contact": "4031-1582" },
  { "id": 78, "name": "Taco Bell", "category": "Food & Restaurant", "location": { "province": "Heredia", "city": "Heredia Centro" }, "product_types": ["tacos", "burritos", "quesadillas", "nachos", "cinnamon twists", "soda"], "hours": "10:00 AM - 11:00 PM", "contact": "N/A" },
  { "id": 79, "name": "Casamia", "category": "Home Goods", "location": { "province": "San José", "city": "Rohrmoser" }, "product_types": ["furniture", "decor", "lighting", "rugs", "outdoor furniture", "interior design services"], "hours": "10:00 AM - 7:00 PM", "contact": "2291-1111" },
  { "id": 80, "name": "Nike Store", "category": "Sporting Goods", "location": { "province": "San José", "city": "Multiplaza Escazú" }, "product_types": ["sneakers", "running shoes", "athletic apparel", "jerseys", "basketball shoes", "gym clothes"], "hours": "10:00 AM - 9:00 PM", "contact": "2201-5030" },
  { "id": 81, "name": "Banco Nacional de Costa Rica", "category": "Bank / Financial Services", "location": { "province": "Puntarenas", "city": "Puntarenas Centro" }, "product_types": ["bank account", "ATM", "loans", "credit cards", "pension payments", "savings"], "hours": "8:30 AM - 3:45 PM", "contact": "2212-2000" },
  { "id": 82, "name": "Pizza Hut", "category": "Food & Restaurant", "location": { "province": "Alajuela", "city": "Grecia" }, "product_types": ["pizza", "pasta", "garlic bread", "salads", "desserts", "delivery", "takeout"], "hours": "11:00 AM - 10:00 PM", "contact": "2258-4444" },
  { "id": 83, "name": "GNC", "category": "Health & Organic Store", "location": { "province": "Cartago", "city": "Paseo Metrópoli" }, "product_types": ["vitamins", "protein powder", "supplements", "health food", "weight loss products", "herbal remedies"], "hours": "10:00 AM - 9:00 PM", "contact": "2573-0050" },
  { "id": 84, "name": "EPK", "category": "Clothing", "location": { "province": "San José", "city": "Avenida Escazú" }, "product_types": ["children's clothing", "baby clothes", "toddler apparel", "kids shoes", "accessories for kids"], "hours": "10:00 AM - 8:00 PM", "contact": "2519-9130" },
  { "id": 85, "name": "Party City", "category": "Party Supplies", "location": { "province": "San José", "city": "Curridabat" }, "product_types": ["balloons", "costumes", "decorations", "party favors", "piñatas", "tableware", "themed party supplies"], "hours": "10:00 AM - 7:00 PM", "contact": "4000-1925" },
  { "id": 86, "name": "La Bodega de Chema", "category": "Liquor Store", "location": { "province": "Guanacaste", "city": "Tamarindo" }, "product_types": ["beer", "wine", "liquor", "ice", "snacks", "mixers", "local craft beer"], "hours": "9:00 AM - 10:00 PM", "contact": "2653-0444" },
  { "id": 87, "name": "Multi-Spa", "category": "Gym & Fitness", "location": { "province": "Heredia", "city": "Cariari" }, "product_types": ["gym membership", "swimming pool", "tennis courts", "racquetball", "group classes", "spa services"], "hours": "5:00 AM - 10:00 PM", "contact": "2239-5000" },
  { "id": 88, "name": "Subway", "category": "Food & Restaurant", "location": { "province": "Puntarenas", "city": "Quepos" }, "product_types": ["sandwiches", "salads", "wraps", "cookies", "soda", "custom subs"], "hours": "9:00 AM - 9:00 PM", "contact": "N/A" },
  { "id": 89, "name": "L'Occitane en Provence", "category": "Beauty Supplies", "location": { "province": "San José", "city": "Multiplaza Escazú" }, "product_types": ["skincare", "hand cream", "fragrances", "body lotion", "shampoo", "soap", "gifts"], "hours": "10:00 AM - 9:00 PM", "contact": "2201-5055" },
  { "id": 90, "name": "Bershka", "category": "Clothing", "location": { "province": "Alajuela", "city": "City Mall" }, "product_types": ["youth fashion", "women's clothing", "men's clothing", "urban wear", "shoes", "accessories"], "hours": "10:00 AM - 9:00 PM", "contact": "2437-7700" },
  { "id": 91, "name": "Muebles & Accesorios", "category": "Home Goods", "location": { "province": "Limón", "city": "Limón Centro" }, "product_types": ["furniture", "beds", "sofas", "dining sets", "home appliances", "decor"], "hours": "8:30 AM - 6:30 PM", "contact": "2758-2020" },
  { "id": 92, "name": "Starbucks", "category": "Coffee Shop", "location": { "province": "San José", "city": "Avenida Escazú" }, "product_types": ["coffee", "lattes", "cappuccino", "frappuccino", "tea", "pastries", "sandwiches", "mugs"], "hours": "6:30 AM - 9:00 PM", "contact": "2519-9061" },
  { "id": 93, "name": "Macrobiótica", "category": "Health & Organic Store", "location": { "province": "Heredia", "city": "Heredia Centro" }, "product_types": ["natural medicine", "herbal teas", "supplements", "vitamins", "organic food", "essential oils"], "hours": "8:00 AM - 6:00 PM", "contact": "2237-1234" },
  { "id": 94, "name": "Polo Ralph Lauren", "category": "Clothing", "location": { "province": "San José", "city": "Multiplaza Escazú" }, "product_types": ["polo shirts", "men's clothing", "women's clothing", "perfume", "accessories", "formal wear"], "hours": "10:00 AM - 9:00 PM", "contact": "2201-5125" },
  { "id": 95, "name": "Skechers", "category": "Shoe Store", "location": { "province": "Cartago", "city": "Paseo Metrópoli" }, "product_types": ["sneakers", "walking shoes", "running shoes", "sandals", "work shoes", "memory foam shoes"], "hours": "10:00 AM - 9:00 PM", "contact": "2573-0055" },
  { "id": 96, "name": "Fresh Market", "category": "Convenience Store", "location": { "province": "San José", "city": "Rohrmoser" }, "product_types": ["gourmet snacks", "craft beer", "wine", "sandwiches", "salads", "coffee", "fresh produce"], "hours": "6:00 AM - 11:00 PM", "contact": "4055-4900" },
  { "id": 97, "name": "Samsung Store", "category": "Electronics & Appliances", "location": { "province": "San José", "city": "Multiplaza Curridabat" }, "product_types": ["smartphones", "galaxy phones", "televisions", "tablets", "smartwatches", "home appliances", "phone cases"], "hours": "10:00 AM - 9:00 PM", "contact": "4000-1726" },
  { "id": 98, "name": "Totto", "category": "Bags & Accessories", "location": { "province": "Alajuela", "city": "Alajuela Centro" }, "product_types": ["backpacks", "luggage", "handbags", "wallets", "pencil cases", "lunch bags"], "hours": "9:00 AM - 7:00 PM", "contact": "2441-3322" },
  { "id": 99, "name": "Foyel", "category": "Bookstore", "location": { "province": "Heredia", "city": "Heredia" }, "product_types": ["books", "comics", "manga", "graphic novels", "board games", "collectibles", "Funko Pops"], "hours": "10:00 AM - 7:00 PM", "contact": "2262-6562" },
  { "id": 100, "name": "Saretto", "category": "Groceries", "location": { "province": "San José", "city": "Escazú" }, "product_types": ["imported goods", "gourmet food", "cheeses", "meats", "wine", "specialty groceries", "deli"], "hours": "8:00 AM - 8:00 PM", "contact": "2228-6515" }
]